,City,Cloudiness,Country,Date,Humidity,Lat,Lng,Max Temp,Wind Speed
0,Rikitea,38,PF,1616376772,68,-23.1203,-134.9692,80.6,5.14
1,Kulhudhuffushi,56,MV,1616376899,68,6.6221,73.07,82.85,3.31
2,Chanika,79,TZ,1616376913,98,-5.4167,38.0167,68.5,1.83
3,Vaini,75,TO,1616376771,79,-21.2,-175.2,84.2,6.91
4,Batemans Bay,100,AU,1616376907,93,-35.7167,150.1833,64.99,1.01
5,Ilulissat,75,GL,1616376810,85,69.2167,-51.1,8.6,20.71
6,Punta Arenas,0,CL,1616376774,66,-53.15,-70.9167,51.8,10.36
7,Hithadhoo,28,MV,1616376782,72,-0.6,73.0833,83.03,8.88
8,Bakchar,67,RU,1616376915,94,57.0186,82.0711,26.56,7.4
9,Mar del Plata,75,AR,1616376832,77,-38.0023,-57.5575,60.01,9.22
10,Rundu,100,NA,1616376916,83,-17.9333,19.7667,67.55,4.34
11,Mataura,23,NZ,1616376780,81,-46.1927,168.8643,61.0,8.01
12,Busselton,52,AU,1616376620,89,-33.65,115.3333,63.0,5.01
13,Buenaventura,100,CO,1616376916,92,3.8801,-77.0312,75.79,1.25
14,Vanimo,100,PG,1616376786,67,-2.6741,141.3028,86.27,5.46
15,Atar,0,MR,1616376786,24,20.5169,-13.0499,65.8,8.39
16,Petauke,48,ZM,1616376917,95,-14.2426,31.3253,64.51,5.95
17,Avarua,40,CK,1616376534,74,-21.2078,-159.775,84.2,5.75
18,St. George's,20,GD,1616376825,78,12.0564,-61.7485,78.8,11.5
19,Norman Wells,20,CA,1616376817,60,65.282,-126.8329,3.2,9.22
20,Albion,1,US,1616376918,32,42.2431,-84.753,52.0,4.61
21,Peniche,0,PT,1616376829,81,39.3558,-9.3811,48.0,1.99
22,Ushuaia,75,AR,1616376496,71,-54.8,-68.3,50.0,8.05
23,Port Hardy,90,CA,1616376721,87,50.6996,-127.4199,44.6,10.36
24,Ostrovnoy,99,RU,1616376919,81,68.0531,39.5131,28.33,12.86
25,Upernavik,100,GL,1616376769,97,72.7868,-56.1549,-8.48,3.89
26,Masuguru,89,TZ,1616376919,98,-11.3667,38.4167,71.01,0.65
27,Hobart,75,AU,1616376649,56,-42.8794,147.3294,75.0,11.5
28,Deputatsky,61,RU,1616376796,91,69.3,139.9,-9.13,3.02
29,Hilo,90,US,1616376788,61,19.7297,-155.09,77.0,16.11
30,Fuling,68,CN,1616376920,76,29.7022,107.3919,53.94,2.42
31,Port Hedland,0,AU,1616376679,54,-20.3167,118.5667,82.4,10.36
32,Longyearbyen,75,SJ,1616376814,73,78.2186,15.6401,15.8,16.11
33,Tabas,0,IR,1616376871,31,33.5959,56.9244,55.15,3.09
34,Ambilobe,9,MG,1616376791,95,-13.2,49.05,73.24,2.15
35,Port Alfred,59,ZA,1616376768,70,-33.5906,26.891,62.78,6.31
36,Saldanha,0,ZA,1616376814,63,-33.0117,17.9442,60.8,5.75
37,Constitución,1,CL,1616376922,91,-35.3333,-72.4167,56.39,2.59
38,Hermanus,0,ZA,1616376798,82,-34.4187,19.2345,61.0,5.99
39,Bethel,1,US,1616376780,42,41.3712,-73.414,46.4,1.97
40,Marzuq,0,YE,1616376923,36,14.4,46.4667,55.74,0.54
41,Marystown,60,CA,1616376923,90,47.1666,-55.1483,33.35,12.26
42,Kapaa,1,US,1616376789,64,22.0752,-159.319,75.2,19.57
43,Jamestown,1,US,1616376714,16,42.097,-79.2353,53.6,6.8
44,Camocim,88,BR,1616376924,86,-2.9022,-40.8411,76.28,7.09
45,Nome,90,US,1616376803,73,64.5011,-165.4064,18.0,4.61
46,Vestmannaeyjar,100,IS,1616376781,78,63.4427,-20.2734,44.74,28.66
47,Buala,100,SB,1616376924,65,-8.145,159.5921,85.95,5.41
48,Vila Franca do Campo,40,PT,1616376863,88,37.7167,-25.4333,55.4,5.75
49,Ukholovo,86,RU,1616376925,90,53.7929,40.4892,19.2,11.61
50,Vung Tau,24,VN,1616376925,70,10.346,107.0843,81.75,5.86
51,Zarubino,0,RU,1616376925,56,42.63,131.0922,37.45,16.24
52,Arraial do Cabo,0,BR,1616376801,84,-22.9661,-42.0278,77.04,19.69
53,Narsaq,75,GL,1616376860,50,60.9167,-46.05,23.0,4.61
54,Katsuura,75,JP,1616376852,41,35.1333,140.3,57.2,21.85
55,Tabou,66,CI,1616376926,90,4.423,-7.3528,78.73,9.01
56,East London,4,ZA,1616376601,68,-33.0153,27.9116,63.72,10.92
57,Shar,99,KZ,1616376927,91,49.5886,81.0453,28.85,8.03
58,Atuona,79,PF,1616376773,79,-9.8,-139.0333,80.49,14.52
59,Cape Town,0,ZA,1616376614,63,-33.9258,18.4232,64.99,10.36
60,El Batey,20,DO,1616376927,83,19.7667,-70.5167,75.2,12.66
61,Souillac,40,MU,1616376897,89,-20.5167,57.5167,78.8,8.05
62,Limenaria,97,GR,1616376928,92,40.6261,24.5786,42.01,5.99
63,Nurlat,84,RU,1616376928,96,54.4277,50.8051,12.43,8.01
64,Thompson,75,CA,1616376823,63,55.7435,-97.8558,19.4,23.02
65,Clyde River,75,CA,1616376858,76,70.4692,-68.5914,-23.8,11.5
66,Bluff,34,NZ,1616376769,81,-46.6,168.3333,61.0,8.01
67,New Norfolk,20,AU,1616376776,52,-42.7826,147.0587,75.0,1.99
68,Nara,75,JP,1616376811,50,34.6851,135.8049,54.0,12.66
69,Mount Isa,40,AU,1616376856,45,-20.7333,139.5,89.6,12.66
70,Bonwapitse,12,BW,1616376930,71,-23.0766,26.7037,66.4,1.68
71,Torbay,75,CA,1616376896,69,47.6666,-52.7314,34.0,16.11
72,Bursa,40,TR,1616376930,93,40.1667,29.0833,42.8,4.61
73,Dikson,100,RU,1616376796,66,73.5069,80.5464,-10.71,2.91
74,Krasnosel'kup,100,RU,1616376903,95,65.7,82.4667,3.36,8.57
75,Khatanga,0,RU,1616376794,79,71.9667,102.5,-17.88,8.55
76,Makat,73,KZ,1616376931,95,47.6469,53.3463,30.9,6.08
77,Bambous Virieux,40,MU,1616376777,89,-20.3428,57.7575,79.0,8.05
78,Saskylakh,0,RU,1616376782,94,71.9167,114.0833,-25.53,3.09
79,Inírida,87,CO,1616376933,85,3.8653,-67.9239,76.73,1.97
80,Poum,33,NC,1616376902,72,-20.2333,164.0167,80.13,15.43
81,Inhambane,2,MZ,1616376885,85,-23.865,35.3833,75.09,4.03
82,Kargasok,83,RU,1616376934,94,59.0556,80.8572,14.86,7.2
83,San Juan,99,AR,1616376935,40,-31.5375,-68.5364,71.83,7.47
84,Carnarvon,0,AU,1616376845,65,-24.8667,113.6333,84.2,14.97
85,Guerrero Negro,96,MX,1616376796,68,27.9769,-114.0611,59.23,21.94
86,Nānākuli,20,US,1616376935,41,21.3906,-158.1547,80.6,17.27
87,Tasiilaq,75,GL,1616376824,80,65.6145,-37.6368,30.2,16.11
88,Cabedelo,20,BR,1616376936,94,-6.9811,-34.8339,77.0,4.61
89,Saint Anthony,90,US,1616376893,54,45.0205,-93.218,59.0,8.05
90,Chicontepec,89,MX,1616376937,79,20.9667,-98.1667,61.66,6.73
91,Lagoa,100,PT,1616376803,79,39.05,-27.9833,58.89,13.22
92,Albany,0,US,1616376794,32,42.6001,-73.9662,46.0,2.1
93,Saint Paul Harbor,1,US,1616376784,56,57.79,-152.4072,42.8,12.66
94,Severo-Kuril'sk,100,RU,1616376882,95,50.6789,156.125,30.65,34.78
95,Synya,100,RU,1616376938,93,65.3718,58.0387,11.57,8.61
96,Carndonagh,98,IE,1616376938,83,55.25,-7.2667,44.42,4.32
97,Porto-Novo,40,BJ,1616376938,83,6.4965,2.6036,82.4,14.97
98,Sapa,13,PH,1616376938,70,5.1544,120.3241,85.91,9.95
99,Aripuanã,100,BR,1616376838,98,-9.1667,-60.6333,70.18,1.45
100,Mogadishu,92,SO,1616376939,81,2.0371,45.3438,80.65,11.39
101,Hualmay,100,PE,1616376773,78,-11.0964,-77.6139,72.9,3.85
102,Punta Gorda,90,US,1616376940,67,26.9298,-82.0454,63.0,13.8
103,Magyarbánhegyes,0,HU,1616376940,74,46.45,20.9667,28.4,2.3
104,Kondinskoye,100,RU,1616376940,95,59.6481,67.41,13.69,7.09
105,Osmeña,100,PH,1616376940,81,10.5208,119.9258,82.62,19.04
106,Cidreira,54,BR,1616376829,89,-30.1811,-50.2056,72.0,7.16
107,Puerto Ayora,48,EC,1616376813,84,-0.7393,-90.3518,80.01,4.14
108,Saint-Philippe,40,RE,1616376822,83,-21.3585,55.7679,77.0,4.61
109,Buritis,82,BR,1616376942,94,-15.6178,-46.4233,67.91,2.66
110,Conceição do Araguaia,27,BR,1616376942,83,-8.2578,-49.2647,80.6,3.44
111,Tuktoyaktuk,1,CA,1616376795,77,69.4541,-133.0374,-13.0,8.05
112,Saint George,20,US,1616376774,18,37.1041,-113.5841,55.99,14.97
113,Marsh Harbour,20,BS,1616376942,73,26.5412,-77.0636,73.92,6.24
114,Haines Junction,100,CA,1616376783,42,60.7522,-137.5108,21.2,9.22
115,Westport,1,US,1616376943,75,41.1415,-73.3579,46.0,3.44
116,Lavrentiya,100,RU,1616376849,78,65.5833,-171.0,3.45,3.4
117,Dosso,49,NE,1616376944,13,13.049,3.1937,85.1,7.54
118,Fortuna,75,US,1616376802,66,40.5982,-124.1573,50.0,10.36
119,Kahului,40,US,1616376944,53,20.8947,-156.47,78.8,29.93
120,Klaksvík,75,FO,1616376781,87,62.2266,-6.589,44.6,17.27
121,Kysyl-Syr,100,RU,1616376944,93,63.8986,122.7617,-12.51,6.78
122,Barrow,1,US,1616376802,71,71.2906,-156.7887,-7.6,16.11
123,La Rioja,75,ES,1616376945,65,42.25,-2.5,45.0,10.36
124,Nanortalik,2,GL,1616376845,75,60.1432,-45.2371,23.04,20.49
125,Butaritari,100,KI,1616376784,79,3.0707,172.7902,81.73,19.93
126,Inta,85,RU,1616376946,84,66.0317,60.1659,7.86,7.56
127,San Policarpo,100,PH,1616376946,82,12.1791,125.5072,81.3,8.9
128,George Town,20,MY,1616376811,74,5.4112,100.3354,84.2,6.91
129,Yellowknife,20,CA,1616376776,50,62.456,-114.3525,-0.4,11.5
130,Port Elizabeth,75,ZA,1616376798,82,-33.918,25.5701,60.8,3.44
131,Belmonte,75,BR,1616376883,88,-15.8631,-38.8828,73.4,2.3
132,Nikolskoye,75,RU,1616376814,69,59.7035,30.7861,30.99,17.9
133,Oddur,98,SO,1616376948,82,4.1213,43.8894,72.72,13.62
134,Sirhind,100,IN,1616376948,66,30.6456,76.3825,65.95,4.21
135,Lityn,3,UA,1616376948,68,49.3251,28.0809,29.82,6.73
136,Katangli,100,RU,1616376948,93,51.7102,143.2326,25.63,20.6
137,Hasaki,75,JP,1616376772,66,35.7333,140.8333,55.99,5.75
138,Tiznit Province,0,MA,1616376949,35,29.5833,-9.5,56.88,6.24
139,Kemijärvi,0,FI,1616376949,89,66.7131,27.4306,10.53,6.11
140,Vegreville,96,CA,1616376949,38,53.5001,-112.0518,39.2,6.91
141,Kruisfontein,51,ZA,1616376852,91,-34.0033,24.7314,55.0,1.01
142,Cherskiy,0,RU,1616376797,69,68.75,161.3,1.65,6.89
143,Tianpeng,0,CN,1616376950,1,30.9866,103.9393,53.01,4.83
144,Vostok,100,RU,1616376777,90,46.4856,135.8833,26.02,13.71
145,Lebu,0,CL,1616376842,89,-37.6167,-73.65,55.62,8.79
146,Petropavlovsk-Kamchatskiy,75,RU,1616376951,80,53.0452,158.6483,32.0,15.66
147,Belyy Yar,0,RU,1616376833,70,53.6039,91.3903,37.4,15.66
148,Capim Grosso,2,BR,1616376951,86,-11.3811,-40.0128,70.99,9.15
149,São Filipe,100,CV,1616376801,73,14.8961,-24.4956,70.32,8.5
150,Castro,2,BR,1616376786,92,-24.7911,-50.0119,65.01,2.3
151,Shitanjing,0,CN,1616376953,10,39.2342,106.3439,38.68,4.0
152,Tiksi,100,RU,1616376800,96,71.6872,128.8694,-17.25,9.89
153,Los Llanos de Aridane,90,ES,1616376910,59,28.6585,-17.9182,62.6,5.75
154,Lander,1,US,1616376954,80,42.833,-108.7307,33.8,12.66
155,Olinda,40,BR,1616376954,73,-8.0089,-34.8553,78.8,8.05
156,Arrondissement de Lannion,75,FR,1616376954,100,48.75,-3.4167,39.2,3.0
157,Ribeira Grande,99,PT,1616376793,79,38.5167,-28.7,60.03,12.08
158,Cairns,40,AU,1616376687,58,-16.9167,145.7667,89.01,8.05
159,Baruun-Urt,69,MN,1616376955,27,46.6806,113.2792,37.2,19.98
160,Dhamtari,20,IN,1616376955,68,20.7072,81.5497,71.6,5.75
161,Invermere,87,CA,1616376955,83,50.5167,-116.0354,34.16,3.02
162,Hanzhong,76,CN,1616376955,41,33.0728,107.0303,52.84,1.45
163,Huilong,81,CN,1616376955,51,31.8111,121.655,53.01,3.0
164,Canoinhas,100,BR,1616376956,96,-26.1772,-50.39,65.93,1.23
165,Oyëk,0,RU,1616376956,74,52.5861,104.4556,26.6,4.47
166,Shelburne,0,CA,1616376956,39,44.0787,-80.2041,46.0,9.13
167,Yumen,0,CN,1616376844,18,40.2833,97.2,38.19,8.03
168,Sunrise Manor,1,US,1616376957,12,36.2111,-115.0731,64.4,23.02
169,Yichang,25,CN,1616376957,51,30.7144,111.2847,55.0,1.99
170,Alofi,100,NU,1616376957,94,-19.0595,-169.9187,78.8,4.61
171,Chokurdakh,82,RU,1616376785,81,70.6333,147.9167,-2.27,4.45
172,San Patricio,1,US,1616376811,64,28.017,-97.5169,68.0,13.8
173,Bredasdorp,8,ZA,1616376772,88,-34.5322,20.0403,55.4,4.61
174,Itarema,81,BR,1616376835,83,-2.9248,-39.9167,77.65,8.39
175,Sitka,90,US,1616376896,87,57.0531,-135.33,41.0,14.97
176,Nikki,5,BJ,1616376959,50,9.9401,3.2108,82.11,6.35
177,Williams Lake,90,CA,1616376959,52,52.1415,-122.1445,39.2,16.11
178,Nuuk,75,GL,1616376930,73,64.1835,-51.7216,17.6,11.5
179,Kaeo,5,NZ,1616376959,65,-35.1,173.7833,70.0,8.01
180,Glace Bay,20,CA,1616376960,70,46.1969,-59.957,41.0,13.8
181,Pangnirtung,99,CA,1616376767,68,66.1451,-65.7125,-3.84,1.97
182,Manzhouli,100,CN,1616376960,39,49.6,117.4333,37.96,9.82
183,Two Hills,84,CA,1616376960,51,53.7169,-111.7518,39.2,6.91
184,Cornwall,1,CA,1616376961,51,45.0181,-74.7281,35.6,4.76
185,Road Town,40,VG,1616376961,73,18.4167,-64.6167,77.0,5.75
186,Tinde,97,TZ,1616376961,81,-3.8833,33.2,64.94,2.77
187,Husavik,40,IS,1616376961,65,66.0449,-17.3389,42.8,28.77
188,Miraflores,40,MX,1616376961,26,19.2167,-98.8083,71.6,9.22
189,Mossamedes,76,AO,1616376814,84,-15.1961,12.1522,71.74,6.49
190,Tazovsky,100,RU,1616376962,96,67.4667,78.7,-1.35,7.7
191,Okitipupa,85,NG,1616376962,91,6.5047,4.7839,77.5,3.11
192,Kavieng,100,PG,1616376839,91,-2.5744,150.7967,78.1,13.76
193,Airai,78,TL,1616376768,58,-8.9266,125.4092,75.02,2.71
194,San Matías,10,BO,1616376963,88,-16.3667,-58.4,74.98,0.81
195,Katoro,100,TZ,1616376963,92,-3.0203,31.8958,63.21,0.54
196,Touros,40,BR,1616376781,83,-5.1989,-35.4608,77.0,3.44
197,Bengkulu,100,ID,1616376640,90,-3.8004,102.2655,76.32,6.42
198,Pacific Grove,0,US,1616376965,83,36.6177,-121.9166,54.0,10.0
199,Hof,100,DE,1616376965,85,50.3167,11.9167,33.01,10.0
200,Laas,0,IT,1616376779,74,46.6166,10.7002,32.0,11.5
201,Zhangaözen,100,KZ,1616376857,85,43.3,52.8,39.51,7.78
202,Birjand,0,IR,1616376965,42,32.8663,59.2211,42.8,4.99
203,Lieksa,100,FI,1616376966,88,63.3167,30.0167,21.33,13.11
204,Salinópolis,81,BR,1616376966,83,-0.6136,-47.3561,79.11,7.4
205,Aswān,0,EG,1616376966,22,24.0934,32.907,74.25,2.37
206,Cabo San Lucas,1,MX,1616376851,36,22.8909,-109.9124,82.4,11.5
207,Dingle,82,PH,1616376774,72,10.9995,122.6711,85.01,13.89
208,Langenburg,75,DE,1616376967,75,49.2544,9.8458,35.6,8.05
209,Nizhniy Kuranakh,99,RU,1616376968,89,58.8353,125.4869,-9.58,4.34
210,Zonguldak,100,TR,1616376968,89,41.25,31.8333,42.96,3.69
211,Makaha,75,US,1616376968,64,21.4694,-158.2175,80.6,16.11
212,Provideniya,75,RU,1616376768,73,64.3833,-173.3,12.2,6.71
213,Egvekinot,100,RU,1616376969,85,66.3167,-179.1667,-2.24,4.18
214,Berlevåg,96,NO,1616376819,67,70.8578,29.0864,29.26,23.87
215,Kaitangata,14,NZ,1616376790,66,-46.2817,169.8464,64.99,4.72
216,Qaanaaq,100,GL,1616376770,97,77.484,-69.3632,-7.49,1.68
217,Manapparai,20,IN,1616376971,88,10.6,78.4167,77.0,4.61
218,Sydney Mines,20,CA,1616376972,70,46.2367,-60.2177,39.99,13.8
219,Comodoro Rivadavia,0,AR,1616376816,55,-45.8667,-67.5,64.4,5.75
220,Kazachinskoye,100,RU,1616376972,88,57.6953,93.2761,30.7,12.03
221,Esperance,0,AU,1616376635,41,-33.8667,121.9,80.6,17.27
222,Rawson,0,AR,1616376767,47,-43.3002,-65.1023,65.98,26.91
223,Bose,100,IT,1616376973,64,45.4612,8.0137,39.99,1.9
224,Pisco,0,PE,1616376790,68,-13.7,-76.2167,71.6,11.5
225,Altay,100,CN,1616376974,59,47.8667,88.1167,30.31,2.15
226,Kerema,11,PG,1616376974,61,-7.9631,145.7785,87.19,7.11
227,Geraldton,75,AU,1616376787,73,-28.7667,114.6,77.0,17.27
228,Ambovombe,0,MG,1616376975,77,-25.1667,46.0833,73.65,4.74
229,San Jose,20,US,1616376709,44,37.3394,-121.895,64.0,12.66
230,Puerto Madero,40,MX,1616376976,65,14.7208,-92.4215,80.6,2.8
231,Puerto Escondido,1,MX,1616376976,74,15.85,-97.0667,80.6,2.98
232,Mehamn,100,NO,1616376886,69,71.0357,27.8492,28.35,23.02
233,Broken Hill,90,AU,1616376829,88,-31.95,141.4333,64.4,14.97
234,Mīzan Teferī,68,ET,1616376977,70,6.9833,35.5833,63.88,2.35
235,Broome,1,US,1616376895,19,42.2506,-75.833,51.8,4.61
236,Vao,35,NC,1616376773,74,-22.6667,167.4833,75.79,17.56
237,Kirakira,66,SB,1616376903,75,-10.4544,161.9205,83.8,5.73
238,Vardø,86,NO,1616376908,68,70.3705,31.1107,28.92,23.2
239,Corowa,100,AU,1616376979,92,-36.0333,146.3833,64.0,12.59
240,Dana Point,0,US,1616376761,55,33.467,-117.6981,62.01,5.01
241,Mahārāganj,0,IN,1616376981,23,27.1333,83.5667,73.9,0.72
242,Holme,69,DK,1616376981,93,56.1138,10.1725,33.01,2.3
243,Laguna,1,US,1616376875,19,38.421,-121.4238,66.99,9.22
244,Edéia,0,BR,1616376981,92,-17.3383,-49.9314,68.25,5.32
245,Ancud,0,CL,1616376862,93,-41.8697,-73.8203,52.0,3.44
246,Port Hawkesbury,1,CA,1616376982,42,45.6169,-61.3485,44.6,12.66
247,Dunedin,32,NZ,1616376982,61,-45.8742,170.5036,64.99,7.0
248,Rehli,0,IN,1616376982,25,23.6333,79.0833,77.0,3.11
249,Padang,20,ID,1616376801,94,-0.9492,100.3543,77.0,2.3
250,Vysotsk,100,RU,1616376982,63,60.6288,28.5705,28.0,1.01
251,Riohacha,10,CO,1616376983,71,11.5444,-72.9072,78.71,11.01
252,Sturgeon Falls,1,CA,1616376984,48,46.3646,-79.9326,39.2,5.75
253,Sinnamary,93,GF,1616376984,85,5.3833,-52.95,78.26,10.74
254,Palmer,20,US,1616376984,32,42.1584,-72.3287,50.0,5.75
255,Verkh-Usugli,97,RU,1616376984,63,52.7,115.1667,33.8,8.25
256,Banyo,100,CM,1616376985,89,6.75,11.8167,67.35,2.71
257,Paraíso,40,CR,1616376985,68,9.8383,-83.8656,69.8,13.8
258,Gazojak,77,TM,1616376985,55,41.1875,61.4036,48.74,10.78
259,Ziro,0,IN,1616376985,60,27.6333,93.8333,56.32,3.15
260,Tilichiki,0,RU,1616376985,84,60.4667,166.1,1.92,2.55
261,Bolu Province,89,TR,1616376986,82,40.6667,31.5833,43.63,4.99
262,Mareeba,40,AU,1616376986,58,-17.0,145.4333,89.01,8.05
263,San Francisco,20,US,1616376857,62,37.7749,-122.4194,60.01,24.16
264,Banda Aceh,59,ID,1616376789,72,5.5577,95.3222,83.88,8.16
265,Río Gallegos,0,AR,1616376804,50,-51.6226,-69.2181,51.8,20.71
266,Sambava,87,MG,1616376987,87,-14.2667,50.1667,76.17,5.12
267,Coyhaique,0,CL,1616376988,71,-45.5752,-72.0662,55.4,5.1
268,Arrondissement de Dole,0,FR,1616376988,87,47.0833,5.5,39.99,11.5
269,Isetskoye,93,RU,1616376988,92,56.4858,65.3226,14.02,5.37
270,Antofagasta,75,CL,1616376771,88,-23.65,-70.4,62.6,10.36
271,Port Blair,35,IN,1616376988,59,11.6667,92.75,83.35,4.68
272,Tromsø,90,NO,1616376855,80,69.6496,18.957,26.6,8.05
273,Zhanakorgan,100,KZ,1616376989,66,43.9098,67.2495,42.21,5.37
274,São João da Barra,0,BR,1616376905,89,-21.6403,-41.0511,75.56,5.06
275,Phang Nga,20,TH,1616376989,78,8.4509,98.5298,84.99,3.44
276,Blind River,1,CA,1616376989,39,46.1834,-82.9582,46.4,13.8
277,Mahébourg,40,MU,1616376836,89,-20.4081,57.7,78.8,8.05
278,Itu,0,BR,1616376990,65,-23.2642,-47.2992,77.0,5.75
279,Maragogi,99,BR,1616376990,76,-9.0122,-35.2225,77.05,2.01
280,Quatre Cocos,40,MU,1616376843,89,-20.2078,57.7625,79.0,8.05
281,Lakatoro,100,VU,1616376991,72,-16.0999,167.4164,83.14,3.36
282,Ginda,10,IN,1616376992,21,30.6945,78.4932,56.25,6.69
283,Malé,75,MV,1616376961,83,4.1748,73.5089,82.4,5.75
284,Lamar,1,US,1616376992,55,33.6668,-95.5836,60.8,11.5
285,Lucapa,100,AO,1616376992,98,-8.4192,20.7447,66.36,3.36
286,Khovd,100,MN,1616376992,24,48.0056,91.6419,35.24,6.6
287,Emba,70,KZ,1616376993,99,48.8264,58.1442,15.3,1.52
288,Miracema do Tocantins,91,BR,1616376993,86,-9.5618,-48.3967,73.94,2.15
289,Mount Gambier,90,AU,1616376857,83,-37.8333,140.7667,68.0,14.97
290,Port Augusta,100,AU,1616376993,61,-32.5,137.7667,80.01,6.91
291,Goulburn,100,AU,1616376994,94,-34.75,149.7167,61.0,1.01
292,Bathsheba,40,BB,1616376994,61,13.2167,-59.5167,78.8,16.11
293,Dalvik,40,IS,1616376994,65,65.9702,-18.5286,42.8,28.77
294,Rio Grande,95,BR,1616376995,94,-32.035,-52.0986,69.01,13.4
295,Makakilo City,20,US,1616376995,41,21.3469,-158.0858,80.6,17.27
296,Zhicheng,32,CN,1616376995,44,30.2956,111.5047,59.0,1.28
297,Nchelenge,92,ZM,1616376996,86,-9.3451,28.734,68.74,5.28
298,Tomatlán,0,MX,1616376996,71,19.9333,-105.25,64.38,1.97
299,Adrar,53,MR,1616376840,24,20.5022,-10.0711,64.81,10.69
300,‘Āhuimanu,75,US,1616376996,57,21.4447,-157.8378,78.8,18.41
301,Alice Springs,90,AU,1616376609,100,-23.7,133.8833,68.0,5.75
302,Izhma,100,RU,1616376997,94,65.0083,53.9113,15.69,8.16
303,Kemin,0,KG,1616376997,66,42.7846,75.6892,39.07,4.47
304,Hong Kong,99,HK,1616376799,69,22.2855,114.1577,62.01,3.0
305,Paamiut,89,GL,1616376997,85,61.994,-49.6678,17.29,16.51
306,Puro,69,PH,1616376901,73,12.4841,123.3827,83.73,11.05
307,Baykit,100,RU,1616376998,94,61.67,96.37,-1.23,3.65
308,Mbuji-Mayi,100,CD,1616376999,94,-6.15,23.6,70.59,2.84
309,Curillo,63,CO,1616376999,95,1.0333,-75.9191,72.25,2.15
310,Maracaibo,1,VE,1616376999,67,10.6317,-71.6406,80.58,14.94
311,Sept-Îles,40,CA,1616376793,56,50.2001,-66.3821,37.99,3.44
312,Lewisporte,75,CA,1616376790,74,49.2499,-55.0482,33.8,19.57
313,Tual,95,ID,1616376891,65,-5.6667,132.75,84.36,2.57
314,Korla,100,CN,1616377000,40,41.7597,86.1469,45.97,1.07
315,Ginir,58,ET,1616377001,55,7.1333,40.7,56.64,4.32
316,Chui,9,UY,1616376864,87,-33.6971,-53.4616,63.9,6.82
317,Waipawa,90,NZ,1616376837,77,-41.4122,175.5153,63.0,12.66
318,Parabel',97,RU,1616377001,94,58.6978,81.4825,19.54,8.01
319,Kattivākkam,75,IN,1616377001,83,13.2167,80.3167,78.8,3.44
320,Ambunti,52,PG,1616377002,61,-4.2365,142.8448,89.83,2.51
321,Sonegaon,40,IN,1616377002,56,20.65,78.6833,73.4,5.37
322,Monrovia,75,LR,1616377002,94,6.3005,-10.7969,73.4,6.91
323,Araouane,100,ML,1616376796,14,18.9048,-3.5265,76.39,12.86
324,Ukiah,1,US,1616377003,36,39.1502,-123.2078,62.6,8.05
325,Vadsø,0,NO,1616377003,79,70.0744,29.7487,21.2,5.75
326,Arman',100,RU,1616377003,77,59.7,150.1667,18.45,7.0
327,Yulara,90,AU,1616376848,83,-25.2406,130.9889,69.8,10.36
328,Neiafu,75,TO,1616377004,83,-18.65,-173.9833,82.4,8.05
329,Béoumi,90,CI,1616377004,100,7.6736,-5.5764,69.8,6.91
330,Panjāb,100,AF,1616377005,65,34.388,67.0233,28.2,4.41
331,Djibouti,1,DJ,1616377005,64,11.5,42.5,71.6,8.81
332,Koryukivka,100,UA,1616377005,77,51.7688,32.2481,29.43,7.45
333,Olafsvik,100,IS,1616376830,92,64.8945,-23.7142,42.57,37.78
334,Kapuskasing,99,CA,1616377005,34,49.4169,-82.4331,50.0,11.5
335,Ponta do Sol,75,PT,1616376801,51,32.6667,-17.1,60.8,9.22
336,Maceió,40,BR,1616376810,88,-9.6658,-35.7353,77.0,2.3
337,Belaya Gora,0,RU,1616377006,82,68.5333,146.4167,-1.82,2.17
338,Sumter,98,US,1616377006,95,28.7086,-82.0831,55.0,3.0
339,San Borja,100,BO,1616377006,98,-14.8167,-66.85,72.23,3.11
340,Sørland,100,NO,1616376891,96,67.667,12.6934,35.13,9.86
341,General Roca,0,AR,1616377007,37,-39.0333,-67.5833,69.8,6.91
342,Ngunguru,22,NZ,1616377007,65,-35.6167,174.5,70.0,8.01
343,Muros,0,ES,1616376872,78,42.7762,-9.0603,46.99,3.0
344,Mendi,20,PG,1616377008,80,-6.1761,143.6513,67.01,4.0
345,Havre-St-Pierre,40,CA,1616376961,80,50.2334,-63.5986,33.8,12.66
346,Abhā,0,SA,1616377008,38,18.2164,42.5053,60.8,2.04
347,Zunheboto,0,IN,1616377005,27,25.9667,94.5167,72.64,2.82
348,Katobu,45,ID,1616377008,61,-4.9408,122.5276,89.37,2.01
349,Bilma,17,NE,1616377009,14,18.6853,12.9164,81.68,7.65
350,Karratha,0,AU,1616376622,45,-20.7377,116.8463,85.66,3.74
351,Praia da Vitória,90,PT,1616376870,94,38.7333,-27.0667,59.0,7.92
352,Brae,90,GB,1616376826,93,60.3964,-1.353,44.6,19.57
353,Marco,90,US,1616377009,68,25.9726,-81.729,66.99,9.22
354,Curaçá,0,BR,1616377010,70,-8.9903,-39.9094,75.43,16.35
355,Isangel,90,VU,1616376793,78,-19.55,169.2667,80.6,14.63
356,Talcahuano,0,CL,1616377010,82,-36.7167,-73.1167,59.0,4.61
357,Inverness,0,GB,1616377010,81,57.4791,-4.224,43.0,11.5
358,Anadyr,20,RU,1616377011,71,64.75,177.4833,-5.01,17.9
359,Pokhara,0,NP,1616377011,18,28.2333,83.9833,76.24,1.43
360,Domoni,2,KM,1616377012,79,-12.2569,44.5319,79.27,2.01
361,Aksu,100,CN,1616377012,37,41.1231,80.2644,44.04,2.98
362,Tura,75,IN,1616377012,24,25.5198,90.2201,84.02,3.22
363,Van Buren,1,US,1616377012,45,35.4368,-94.3483,64.4,5.75
364,Darapidap,97,PH,1616377013,66,17.2131,120.4114,84.52,3.62
365,Vila Velha,40,BR,1616376828,88,-20.3297,-40.2925,77.0,2.3
366,Batagay-Alyta,97,RU,1616376879,92,67.8006,130.4114,-0.67,3.96
367,Tarbagatay,100,RU,1616377013,80,51.4803,107.3602,28.4,3.18
368,Tautira,40,PF,1616376804,66,-17.7333,-149.15,87.8,12.66
369,Kabinda,100,CD,1616376882,97,-6.1333,24.4833,66.47,3.74
370,Tuatapere,15,NZ,1616376788,81,-46.1333,167.6833,61.0,8.01
371,Mayumba,99,GA,1616376799,83,-3.432,10.6554,77.83,2.06
372,Maunabo,64,PR,1616377014,80,18.0072,-65.8993,77.0,4.0
373,Presidencia Roque Sáenz Peña,41,AR,1616377015,85,-26.7852,-60.4388,70.0,1.99
374,Marabu,20,MY,1616377015,89,4.4148,114.0089,82.4,4.61
375,Orocué,44,CO,1616377016,52,4.7912,-71.3354,82.89,5.61
376,Igrim,49,RU,1616377016,95,63.1906,64.4162,5.0,5.06
377,Kotel'nich,100,RU,1616377016,93,58.3089,48.348,22.69,12.06
378,Codrington,99,AU,1616376811,68,-38.2667,141.9667,71.83,12.46
379,Kutum,100,SD,1616377016,14,14.2,24.6667,71.28,8.32
380,Olot,31,ES,1616377017,82,42.181,2.4901,41.0,1.01
381,The Valley,20,AI,1616377017,73,18.217,-63.0578,78.01,10.36
382,Pevek,0,RU,1616376804,85,69.7008,170.3133,-18.38,5.26
383,Namatanai,100,PG,1616376859,88,-3.6667,152.4333,77.23,4.9
384,Ust'-Uda,100,RU,1616377018,88,54.1742,103.0304,32.99,4.07
385,Iqaluit,90,CA,1616376809,71,63.7506,-68.5145,-4.0,3.44
386,Vila,1,PT,1616377018,77,42.0304,-8.1588,39.99,5.01
387,Barentu,43,ER,1616377018,40,15.1139,37.5928,68.27,9.26
388,Bonavista,100,CA,1616377019,74,48.6499,-53.1147,33.01,12.66
389,Smithers,75,CA,1616377019,52,54.7804,-127.1743,41.0,4.61
390,Serra Talhada,54,BR,1616377019,86,-7.9919,-38.2983,72.09,9.78
391,Soe,90,ID,1616377019,65,-9.8607,124.284,80.11,2.1
392,Maniitsoq,51,GL,1616376916,82,65.4167,-52.9,10.56,5.88
393,Labytnangi,94,RU,1616377020,93,66.6572,66.4183,-4.77,4.09
394,Naze,75,JP,1616376889,51,28.3667,129.4833,60.8,14.97
395,Shelbyville,40,US,1616377021,76,35.4834,-86.4603,55.4,3.44
396,Mwinilunga,80,ZM,1616377021,98,-11.7358,24.4293,61.3,2.57
397,Kołobrzeg,89,PL,1616377021,82,54.1757,15.5834,37.0,9.44
398,Prince Rupert,90,CA,1616377022,87,54.3161,-130.3201,41.0,10.36
399,Verkhoyansk,100,RU,1616376786,82,67.5447,133.385,7.74,5.01
400,College Station,1,US,1616377023,48,30.628,-96.3344,66.2,8.05
401,Slave Lake,90,CA,1616377024,38,55.2834,-114.769,39.2,6.91
402,Aykhal,0,RU,1616376818,89,66.0,111.5,-21.44,5.84
403,Rupert,20,US,1616377024,39,42.6191,-113.6772,42.8,9.22
404,Grindavik,90,IS,1616376844,93,63.8424,-22.4338,42.8,33.38
405,Soure,3,BR,1616377025,83,-0.7167,-48.5233,78.57,6.6
406,Lorengau,36,PG,1616376835,71,-2.0226,147.2712,85.15,4.36
407,Mochalishche,0,RU,1616377025,86,56.3306,48.3547,15.8,11.18
408,College,1,US,1616376826,33,64.8569,-147.8028,23.0,0.98
409,Safonovo,100,RU,1616377025,93,55.15,33.2167,28.17,8.34
410,Province of Palermo,100,IT,1616377026,88,37.8167,13.5833,45.0,1.99
411,Chicama,99,PE,1616376807,68,-7.8447,-79.1469,75.34,3.38
412,Daru,55,PG,1616377026,65,-9.0763,143.2092,87.4,3.96
413,Port Lincoln,0,AU,1616376818,54,-34.7333,135.8667,77.23,7.2
414,Anloga,20,GH,1616377026,83,5.7947,0.8973,82.4,12.66
415,Lompoc,1,US,1616376767,67,34.6391,-120.4579,55.4,16.11
416,Basco,100,PH,1616377027,84,20.4487,121.9702,72.59,34.74
417,Samarinda,91,ID,1616376823,78,-0.5,117.15,84.69,3.27
418,Iskateley,93,RU,1616377027,95,67.6803,53.1512,14.27,8.5
419,Uniontown,1,US,1616377028,21,39.9001,-79.7164,57.2,5.75
420,Nóvita,100,CO,1616377028,95,4.9551,-76.6053,74.8,1.99
421,Ust'-Ishim,59,RU,1616376779,96,57.6935,71.1665,13.46,3.24
422,Hobyo,17,SO,1616377028,81,5.3505,48.5268,77.7,14.29
423,Brigantine,1,US,1616377029,75,39.4101,-74.3646,43.0,5.75
424,Bodaybo,100,RU,1616377029,89,57.8506,114.1933,16.5,2.55
425,Pesaro,83,IT,1616377016,59,43.9036,12.8903,48.0,7.0
426,Gizo Government Station,100,SB,1616376850,69,-8.103,156.8419,85.17,10.02
427,Necochea,0,AR,1616376806,77,-38.5473,-58.7368,53.08,5.64
428,Taihecun,0,CN,1616377016,66,45.8,130.85,33.42,14.79
429,Hirara,75,JP,1616377030,63,24.8,125.2833,62.6,14.97
430,Iquitos,40,PE,1616376907,94,-3.7481,-73.2472,75.2,2.3
431,Sayyan,0,YE,1616377023,28,15.1718,44.3244,51.85,8.37
432,Beringovskiy,0,RU,1616376915,68,63.05,179.3167,3.69,6.55
433,Zyryanka,0,RU,1616377031,77,65.75,150.85,7.23,11.83
434,Noumea,20,NC,1616376603,54,-22.2763,166.4572,86.0,19.57
435,Karaton,40,ID,1616377031,70,-6.3424,106.1045,87.01,10.36
436,Mercedes,0,AR,1616376825,83,-34.6515,-59.4307,64.0,1.01
437,Faanui,0,PF,1616376832,74,-16.4833,-151.75,83.35,12.06
438,Holeby,100,DK,1616377032,86,54.7115,11.4642,37.0,1.01
439,Kapit,77,MY,1616376776,66,2.0167,112.9333,87.76,0.54
440,Canutama,99,BR,1616377032,97,-6.5339,-64.3831,72.81,1.43
441,Tamiahua,0,MX,1616377032,80,21.2667,-97.45,67.28,9.4
442,Tres Arroyos,0,AR,1616377033,80,-38.3739,-60.2798,49.19,7.49
443,Barquisimeto,59,VE,1616377033,85,10.0739,-69.3228,69.96,3.67
444,Dwārka,0,IN,1616376911,85,22.2394,68.9678,74.16,3.04
445,Dali,63,CN,1616377033,45,25.7,100.1833,61.32,3.36
446,Hambantota,40,LK,1616376960,100,6.1241,81.1185,71.6,2.3
447,Hofn,59,IS,1616376905,85,64.2539,-15.2082,43.65,21.32
448,Sabang,70,ID,1616376852,73,5.8933,95.3214,83.77,11.68
449,Chul'man,0,RU,1616377035,77,56.8479,124.9104,2.16,2.01
450,Udaipur,0,IN,1616377035,63,24.5712,73.6918,66.2,4.0
451,San Luis,0,AR,1616377035,43,-33.295,-66.3356,59.95,14.47
452,Kilgore,1,US,1616377035,55,32.3863,-94.8758,62.01,9.22
453,Matara,100,LK,1616376881,88,5.9485,80.5353,77.36,6.06
454,Orange Cove,1,US,1616377036,39,36.6244,-119.3137,62.6,3.44
455,Bandarbeyla,0,SO,1616377036,74,9.4942,50.8122,74.5,7.58
456,Jiuquan,0,CN,1616376949,15,39.7432,98.5174,44.31,4.29
457,Labuhan,100,ID,1616377037,73,-6.8844,112.2051,83.66,4.63
458,Flinders,100,AU,1616376849,96,-34.5833,150.8552,68.0,1.01
459,Atbasar,92,KZ,1616377037,94,51.8,68.3333,21.38,10.02
460,Brisbane,75,AU,1616376835,83,-27.4679,153.0281,73.4,3.44
461,Cockburn Town,3,TC,1616376769,78,21.4612,-71.1419,76.71,21.0
462,Grão Mogol,23,BR,1616377038,98,-16.5594,-42.8897,62.53,3.47
463,Opuwo,60,NA,1616376902,77,-18.0607,13.84,66.4,2.37
464,Tāybād,65,IR,1616377038,69,34.74,60.7756,48.81,3.65
465,Khanbari,0,NP,1616377039,24,27.3747,87.2039,73.2,2.21
466,Casalpusterlengo,60,IT,1616377039,54,45.1769,9.6491,37.0,1.07
467,Monkey Hill,15,KN,1616377040,78,17.3167,-62.7167,75.2,14.97
468,Esso,100,RU,1616376854,85,55.9333,158.7,18.97,8.55
469,Skjervøy,100,NO,1616377040,67,70.0311,20.9714,30.79,23.91
470,Kristiansand,2,NO,1616376742,80,58.1467,7.9956,37.99,2.3
471,Poso,100,ID,1616377040,58,-1.3959,120.7524,89.06,2.17
472,Cabra,0,ES,1616376907,63,37.4725,-4.4421,44.01,1.54
473,Jos,27,NG,1616376984,44,9.9167,8.9,71.1,6.51
474,Yar-Sale,100,RU,1616377041,96,66.8333,70.8333,-4.07,4.59
475,Pueblo Bello,72,CO,1616377041,95,8.2041,-76.526,73.89,2.91
476,Malaya Serdoba,61,RU,1616377041,93,52.4661,44.9512,18.05,7.74
477,Ridgecrest,1,US,1616377039,8,35.6225,-117.6709,64.4,21.85
478,Pontalina,0,BR,1616377042,94,-17.525,-49.4472,66.96,5.12
479,Walvis Bay,32,NA,1616376956,88,-22.9575,14.5053,63.0,5.75
480,Westerly,1,US,1616377042,87,41.3776,-71.8273,41.0,4.61
481,Mandan,1,US,1616377042,34,46.8267,-100.8896,51.8,13.8
482,Wanning,100,CN,1616377043,87,18.8003,110.3967,67.41,15.01
483,Kidal,0,ML,1616377043,14,18.4411,1.4078,77.27,13.85
484,Salalah,0,OM,1616376789,88,17.0151,54.0924,75.2,3.44
485,Zambezi,29,ZM,1616377043,95,-13.5432,23.1047,63.19,4.09
486,Saint-Augustin,91,CA,1616376918,91,51.226,-58.6502,30.63,11.43
487,Hūn,0,LY,1616377044,76,29.1268,15.9477,56.88,10.83
488,Tartagal,97,AR,1616377044,84,-22.5164,-63.8013,64.72,1.86
489,Tevriz,97,RU,1616377044,96,57.509,72.4042,14.63,3.42
490,Tarakan,100,ID,1616377044,78,3.3,117.6333,81.3,5.06
491,Santa Helena de Goiás,9,BR,1616377045,86,-17.8136,-50.5969,68.72,3.6
492,Krasnyye Chetai,84,RU,1616377045,92,55.6887,46.1386,16.7,12.33
493,Palu,99,ID,1616376887,53,-0.8917,119.8707,92.97,0.81
494,Makkah al Mukarramah,0,SA,1616376912,61,21.4267,39.8261,74.97,1.12
495,Kitaibaraki,100,JP,1616377045,53,36.7833,140.75,51.01,5.01
496,Carballo,40,ES,1616377046,87,43.213,-8.691,48.99,3.44
497,Suez,96,EG,1616377046,35,29.9737,32.5263,78.39,6.8
498,Oytal,17,KZ,1616377046,66,42.9057,73.2697,42.64,6.62
499,Lüderitz,14,NA,1616376609,64,-26.6481,15.1594,67.98,10.71
500,Lumding,0,IN,1616377047,27,25.7535,93.1732,81.9,0.96
501,Rocha,98,UY,1616377047,75,-34.4833,-54.3333,65.55,6.26
502,Faya,0,SA,1616376775,38,18.3851,42.4509,60.8,2.84
503,La Santisima Trinidad,100,BO,1616377048,96,-14.8333,-64.9,73.2,6.04
504,Kristinestad,0,FI,1616376798,81,62.2743,21.376,25.03,4.83
505,Den Helder,90,NL,1616377015,87,52.9599,4.7593,42.01,5.75
506,Beloha,0,MG,1616376952,76,-25.1667,45.05,73.45,2.62
507,Bosaso,0,SO,1616376997,63,11.2842,49.1816,73.63,3.2
508,Oranjemund,0,NA,1616377049,87,-28.55,16.4333,61.52,3.78
509,Yasnyy,60,RU,1616377049,97,51.0333,59.8742,10.24,8.41
510,Winslow,1,US,1616377049,8,35.0242,-110.6974,59.0,21.85
511,Wattegama,40,LK,1616376880,100,6.7989,81.4808,71.6,2.3
512,Tartous,0,SY,1616377050,62,34.889,35.8866,71.01,3.44
513,Aquiraz,40,BR,1616377050,78,-3.9014,-38.3911,81.0,4.61
514,Spring Valley,20,US,1616377050,9,36.108,-115.245,64.4,17.27
515,George Town,20,MY,1616376811,74,5.4112,100.3354,84.2,6.91
516,San Quintín,79,MX,1616376815,69,30.4833,-115.95,55.85,18.07
517,Virginia Beach,99,US,1616377051,86,36.8529,-75.978,50.0,3.0
518,Mthatha,47,ZA,1616377051,76,-31.5889,28.7844,55.4,5.75
519,Kinablangan,100,PH,1616377051,75,7.6947,126.5503,83.21,5.82
520,Bintulu,40,MY,1616377052,89,3.1667,113.0333,80.6,2.3
521,Novogagatli,90,RU,1616377052,93,43.4568,46.4818,37.4,4.47
522,Yongchang,0,CN,1616377052,39,30.0381,119.7317,50.0,7.0
523,Selfoss,100,IS,1616377052,95,63.9331,-20.9971,41.0,27.0
524,Adelaide,53,AU,1616376823,47,-34.9333,138.6,84.0,4.0
525,Itaituba,40,BR,1616377044,94,-4.2761,-55.9836,78.8,1.5
526,Omboué,57,GA,1616377053,88,-1.5746,9.2618,77.65,3.31
527,Tanout,1,NE,1616376908,13,14.9709,8.8879,79.48,11.48
528,Kyren,100,RU,1616377054,62,51.6828,102.1408,35.96,1.25
529,Conde,20,BR,1616377054,94,-7.2597,-34.9075,77.0,4.61
530,Teya,100,RU,1616377054,90,60.3778,92.6267,29.57,10.18
531,Iracoubo,91,GF,1616376836,86,5.4802,-53.2011,77.94,10.33
532,Kikwit,100,CD,1616377055,97,-5.041,18.8162,70.97,0.65
533,Kilindoni,59,TZ,1616377055,75,-7.9139,39.6668,82.45,8.48
534,Sumbe,100,AO,1616377055,86,-11.2061,13.8437,78.49,8.19
535,Morón,29,AR,1616377008,82,-34.6534,-58.6198,66.0,5.99
536,Sohag,0,EG,1616377056,24,26.557,31.6948,78.8,6.91
537,Pangai,40,TO,1616377056,83,-19.8,-174.35,82.4,4.61
538,Monte Patria,0,CL,1616377056,53,-30.6919,-70.9467,56.88,0.69
539,Iquique,0,CL,1616377057,73,-20.2208,-70.1431,68.0,10.36
540,Naryan-Mar,92,RU,1616377057,95,67.6713,53.087,14.36,8.48
541,Søgne,2,NO,1616377057,80,58.0833,7.8167,37.99,2.3
542,San Lorenzo,90,PY,1616377057,94,-25.3333,-57.5333,71.6,6.91
543,Melfi,90,IT,1616377058,86,40.9965,15.6514,34.0,6.91
544,Suntar,31,RU,1616376906,88,62.1444,117.6319,-15.92,4.99
545,Te Anau,9,NZ,1616377058,62,-45.4167,167.7167,65.53,3.11
546,Juneau,90,US,1616376719,80,58.3019,-134.4197,35.6,2.8
547,Rovaniemi,0,FI,1616377058,73,66.5,25.7167,14.0,8.05
548,Shenzhen,93,CN,1616376989,79,22.5455,114.0683,63.0,1.99
549,Celestún,0,MX,1616377059,78,20.8667,-90.4,70.61,12.71
550,Teacapan,0,MX,1616377060,70,22.55,-105.75,67.24,2.82
551,Sukumo,28,JP,1616377023,60,32.9333,132.7333,51.46,14.12
552,Vladislavovka,38,UA,1616377061,75,45.1667,35.3667,36.68,8.41
553,Borzya,100,RU,1616377055,72,50.3833,116.5167,31.1,8.86
554,Līsakovsk,100,KZ,1616376888,93,52.5369,62.4936,15.44,8.43
555,Chinsali,100,ZM,1616377061,97,-10.5414,32.0816,61.3,1.34
556,Oistins,40,BB,1616377061,61,13.0667,-59.5333,78.8,16.11
557,Yaan,48,NG,1616376850,74,7.3833,8.5667,79.66,13.94
558,Evensk,100,RU,1616377042,90,61.95,159.2333,5.02,4.9
559,Teruel,90,ES,1616377062,86,40.6667,-0.6667,50.0,5.75
560,Maumere,98,ID,1616376906,70,-8.6199,122.2111,85.39,4.92
561,Falmouth,37,GB,1616377063,81,50.1544,-5.0711,43.0,5.75
562,Lake Havasu City,40,US,1616377064,10,34.4839,-114.3224,71.6,20.71
563,Turukhansk,100,RU,1616376855,93,65.8167,87.9833,-1.07,14.92
564,Copala,0,MX,1616377064,76,16.65,-98.9833,76.75,6.29
565,Buraidah,0,SA,1616377065,45,26.326,43.975,68.0,2.3
566,Eyl,0,SO,1616376971,84,7.9803,49.8164,72.1,10.65
567,Kirando,97,TZ,1616377065,82,-7.4167,30.6,70.86,6.51
568,Tayoltita,0,MX,1616377065,36,24.0833,-105.9333,61.21,1.43
569,Semey,0,KZ,1616377021,93,50.4111,80.2275,26.6,6.71
570,Balkanabat,91,TM,1616377066,49,39.5108,54.3671,54.1,4.5
571,Ulaangom,100,MN,1616377066,72,49.9811,92.0667,18.93,1.9
572,Ogembo,100,KE,1616377066,92,-0.7984,34.7253,60.17,4.0
573,Mugumu,92,TZ,1616377066,82,-1.85,34.7,58.39,4.52
574,Grand Gaube,1,MU,1616376866,84,-20.0064,57.6608,79.0,5.99
575,Baharly,4,TM,1616377032,43,38.4362,57.4316,55.78,4.97
576,Nichinan,40,JP,1616376969,47,31.6,131.3667,53.6,12.66
577,Ketchikan,90,US,1616377067,100,55.3422,-131.6461,39.2,11.5
578,Saint-Agapit,1,CA,1616377067,60,46.5629,-71.4352,42.8,5.28
579,Thohoyandou,98,ZA,1616377068,96,-22.9456,30.485,67.26,8.97
580,Lonevåg,100,NO,1616377068,96,60.5262,5.4937,39.0,1.99
